[
  {
    "id": "espace-pluridys",
    "name": "Espace Pluridys",
    "address_obj": {
      "streetName": "Dieweg",
      "streetNumber": "99",
      "postalCode": "1180",
      "city": "Ukkel",
      "region": "Brussels Hoofdstedelijk Gewest",
      "country": "BE"
    },
    "fullAddress": "Dieweg 99, 1180 Ukkel, Brussel",
    "zip": "1180",
    "city": "Ukkel",
    "Maps_link": "https://maps.google.com/?q=Dieweg+99,+1180+Uccle,+Bruxelles",
    "doctorpracticeId": "84434",
    "notes": "Gratis parkeren beschikbaar voor het centrum.",
    "hours_type": "specifiek",
    "opening_hours": [
      {
        "dayOfWeekFRENCH": "Mercredi",
        "dayOfWeekENGLISH": "Wednesday",
        "dayOfWeekDUTCH": "Woensdag",
        "dayOfWeekSCHEMA": "Wednesday",
        "timeSlots": [
          {"opens": "14:00", "closes": "20:00"}
        ]
      }
    ],
    "hours_details_note": "Consultaties elke woensdag.",
    "coordinates": [50.795910, 4.347600]
  },
  {
    "id": "basilik-k-sante",
    "name": "Basili-K Santé",
    "address_obj": {
      "streetName": "Segherslaan",
      "streetNumber": "99",
      "postalCode": "1081",
      "city": "Koekelberg",
      "region": "Brussels Hoofdstedelijk Gewest",
      "country": "BE"
    },
    "fullAddress": "Segherslaan 99, 1081 Koekelberg, Brussel",
    "zip": "1081",
    "city": "Koekelberg",
    "Maps_link": "https://maps.google.com/?q=Avenue+Seghers+99,+1081+Koekelberg,+Bruxelles",
    "doctorpracticeId": "84474",
    "notes": "Gemakkelijk parkeren met een blauwe schijf voor het centrum.",
    "hours_type": "specifiek",
    "opening_hours": [
      {
        "dayOfWeekFRENCH": "Samedi",
        "dayOfWeekENGLISH": "Saturday",
        "dayOfWeekDUTCH": "Zaterdag",
        "dayOfWeekSCHEMA": "Saturday",
        "timeSlots": [
          {"opens": "09:00", "closes": "13:00"}
        ]
      }
    ],
    "hours_details_note": "Consultaties elke zaterdagochtend.",
    "coordinates": [50.864650, 4.320200]
  },
  {
    "id": "centre-medic-alix",
    "name": "Centre Médic-Alix",
    "address_obj": {
      "streetName": "Sint-Aleidisvoorplein",
      "streetNumber": "3",
      "postalCode": "1150",
      "city": "Sint-Pieters-Woluwe",
      "region": "Brussels Hoofdstedelijk Gewest",
      "country": "BE"
    },
    "fullAddress": "Sint-Aleidisvoorplein 3, 1150 Sint-Pieters-Woluwe, Brussel",
    "zip": "1150",
    "city": "Sint-Pieters-Woluwe",
    "Maps_link": "https://maps.google.com/?q=Parvis+Sainte-Alix+3,+1150+Woluwe-Saint-Pierre,+Bruxelles",
    "doctorpracticeId": "117961",
    "notes": "Gemakkelijk parkeren voor het centrum.",
    "hours_type": "specifiek",
    "opening_hours": [
      {
        "dayOfWeekFRENCH": "Mardi",
        "dayOfWeekENGLISH": "Tuesday",
        "dayOfWeekDUTCH": "Dinsdag",
        "dayOfWeekSCHEMA": "Tuesday",
        "timeSlots": [
          {"opens": "14:00", "closes": "20:00"}
        ]
      }
    ],
    "hours_details_note": "Consultaties op dinsdag, om de week (controleer beschikbaarheid).",
    "coordinates": [50.827480, 4.461210]
  },
  {
    "id": "centre-medical-tenbosch-chatelain",
    "name": "Centre Médical Tenbosch-Châtelain",
    "address_obj": {
      "streetName": "Tenboschstraat",
      "streetNumber": "85",
      "postalCode": "1050",
      "city": "Elsene",
      "region": "Brussels Hoofdstedelijk Gewest",
      "country": "BE"
    },
    "fullAddress": "Tenboschstraat 85, 1050 Elsene, Brussel",
    "zip": "1050",
    "city": "Elsene",
    "Maps_link": "https://maps.google.com/?q=Rue+Tenbosch+85,+1050+Ixelles,+Bruxelles",
    "doctorpracticeId": "86140",
    "notes": "Betaald parkeren beschikbaar voor het centrum.",
    "hours_type": "specifiek",
    "opening_hours": [
      {
        "dayOfWeekFRENCH": "Jeudi",
        "dayOfWeekENGLISH": "Thursday",
        "dayOfWeekDUTCH": "Donderdag",
        "dayOfWeekSCHEMA": "Thursday",
        "timeSlots": [
          {"opens": "13:00", "closes": "18:00"}
        ]
      },
      {
        "dayOfWeekFRENCH": "Samedi",
        "dayOfWeekENGLISH": "Saturday",
        "dayOfWeekDUTCH": "Zaterdag",
        "dayOfWeekSCHEMA": "Saturday",
        "timeSlots": [
          {"opens": "14:00", "closes": "18:00"}
        ]
      }
    ],
    "hours_details_note": "Consultaties op donderdagmiddag (om de week) en elke zaterdagmiddag (controleer beschikbaarheid).",
    "coordinates": [50.821350, 4.361130]
  },
  {
    "id": "centre-revago",
    "name": "Centre REVAGO",
    "address_obj": {
      "streetName": "Koning Albertlaan",
      "streetNumber": "187",
      "postalCode": "1082",
      "city": "Sint-Agatha-Berchem",
      "region": "Brussels Hoofdstedelijk Gewest",
      "country": "BE"
    },
    "fullAddress": "Koning Albertlaan 187, 1082 Sint-Agatha-Berchem, Brussel",
    "zip": "1082",
    "city": "Sint-Agatha-Berchem",
    "Maps_link": "https://maps.google.com/?q=Avenue+du+Roi+Albert+187,+1082+Berchem-Sainte-Agathe,+Bruxelles",
    "doctorpracticeId": "113544",
    "notes": "Gemakkelijk parkeren met een blauwe schijf voor het centrum.",
    "hours_type": "specifiek",
    "opening_hours": [
      {
        "dayOfWeekFRENCH": "Mardi",
        "dayOfWeekENGLISH": "Tuesday",
        "dayOfWeekDUTCH": "Dinsdag",
        "dayOfWeekSCHEMA": "Tuesday",
        "timeSlots": [
          {"opens": "14:00", "closes": "20:00"}
        ]
      }
    ],
    "hours_details_note": "Consultaties op dinsdag, om de week (controleer beschikbaarheid).",
    "coordinates": [50.866860, 4.287240]
  },
  {
    "id": "centre-etrimaux",
    "name": "Les Etrimaux",
    "address_obj": {
      "streetName": "Nijvelsedreef",
      "streetNumber": "168",
      "postalCode": "1150",
      "city": "Sint-Pieters-Woluwe",
      "region": "Brussels Hoofdstedelijk Gewest",
      "country": "BE"
    },
    "fullAddress": "Nijvelsedreef 168, 1150 Sint-Pieters-Woluwe, Brussel",
    "zip": "1150",
    "city": "Sint-Pieters-Woluwe",
    "Maps_link": "https://maps.google.com/?q=Drève+de+Nivelles+168,+1150+Woluwe-Saint-Pierre,+Bruxelles",
    "doctorpracticeId": "96326",
    "notes": "Gemakkelijk parkeren met een blauwe schijf voor het centrum.",
    "hours_type": "specifiek",
    "opening_hours": [
      {
        "dayOfWeekFRENCH": "Lundi",
        "dayOfWeekENGLISH": "Monday",
        "dayOfWeekDUTCH": "Maandag",
        "dayOfWeekSCHEMA": "Monday",
        "timeSlots": [
          {"opens": "12:30", "closes": "16:30"}
        ]
      }
    ],
    "hours_details_note": "Consultaties op maandagmiddag, om de week (controleer beschikbaarheid).",
    "coordinates": [50.824880, 4.411230]
  },
  {
    "id": "centre-mediwoluwe",
    "name": "Mediwoluwe",
    "address_obj": {
      "streetName": "de Broquevillelaan",
      "streetNumber": "9",
      "postalCode": "1150",
      "city": "Sint-Pieters-Woluwe",
      "region": "Brussels Hoofdstedelijk Gewest",
      "country": "BE"
    },
    "fullAddress": "de Broquevillelaan 9, 1150 Sint-Pieters-Woluwe, Brussel",
    "zip": "1150",
    "city": "Sint-Pieters-Woluwe",
    "Maps_link": "https://maps.google.com/?q=Avenue+de+Broqueville+9,+1150+Woluwe-Saint-Pierre,+Bruxelles",
    "doctorpracticeId": "86003",
    "notes": "Betaald parkeren beschikbaar voor het centrum.",
    "hours_type": "specifiek",
    "opening_hours": [
      {
        "dayOfWeekFRENCH": "Lundi",
        "dayOfWeekENGLISH": "Monday",
        "dayOfWeekDUTCH": "Maandag",
        "dayOfWeekSCHEMA": "Monday",
        "timeSlots": [
          {"opens": "11:00", "closes": "21:00"}
        ]
      }
    ],
    "hours_details_note": "Consultaties elke maandag.",
    "coordinates": [50.838350, 4.409340]
  },
  {
    "id": "wolu20-medical-center",
    "name": "Wolu20 Medisch Centrum",
    "address_obj": {
      "streetName": "Marcel Thirylaan",
      "streetNumber": "20",
      "postalCode": "1200",
      "city": "Sint-Lambrechts-Woluwe",
      "region": "Brussels Hoofdstedelijk Gewest",
      "country": "BE"
    },
    "fullAddress": "Marcel Thirylaan 20, 1200 Sint-Lambrechts-Woluwe, Brussel",
    "zip": "1200",
    "city": "Sint-Lambrechts-Woluwe",
    "Maps_link": "https://maps.google.com/?q=Avenue+Marcel+Thiry+20,+1200+Woluwe-Saint-Lambert,+Bruxelles",
    "doctorpracticeId": "117960",
    "notes": "Gemakkelijk parkeren voor het centrum.",
    "hours_type": "specifiek",
    "opening_hours": [
      {
        "dayOfWeekFRENCH": "Jeudi",
        "dayOfWeekENGLISH": "Thursday",
        "dayOfWeekDUTCH": "Donderdag",
        "dayOfWeekSCHEMA": "Thursday",
        "timeSlots": [
          {"opens": "13:30", "closes": "20:30"}
        ]
      }
    ],
    "hours_details_note": "Consultaties op donderdag, om de week (controleer beschikbaarheid).",
    "coordinates": [50.854990, 4.440910]
  },
  {
    "id": "video",
    "name": "Videoconsultatie",
    "address_obj": null,
    "fullAddress": "Op afstand (online vanuit uw huis)",
    "zip": null,
    "city": null,
    "Maps_link": null,
    "doctorpracticeId": "121864",
    "notes": "Voedingsconsultatie waar u ook bent.",
    "hours_type": "specifiek",
    "opening_hours": [
      {
        "dayOfWeekFRENCH": "Lundi",
        "dayOfWeekENGLISH": "Monday",
        "dayOfWeekDUTCH": "Maandag",
        "dayOfWeekSCHEMA": "Monday",
        "timeSlots": [
          {"opens": "12:30", "closes": "16:30"},
          {"opens": "17:00", "closes": "21:00"}
        ]
      },
      {
        "dayOfWeekFRENCH": "Mardi",
        "dayOfWeekENGLISH": "Tuesday",
        "dayOfWeekDUTCH": "Dinsdag",
        "dayOfWeekSCHEMA": "Tuesday",
        "timeSlots": [
          {"opens": "10:00", "closes": "13:00"},
          {"opens": "14:00", "closes": "20:00"}
        ]
      },
      {
        "dayOfWeekFRENCH": "Mercredi",
        "dayOfWeekENGLISH": "Wednesday",
        "dayOfWeekDUTCH": "Woensdag",
        "dayOfWeekSCHEMA": "Wednesday",
        "timeSlots": [
          {"opens": "10:00", "closes": "13:00"},
          {"opens": "14:00", "closes": "20:00"}
        ]
      },
      {
        "dayOfWeekFRENCH": "Jeudi",
        "dayOfWeekENGLISH": "Thursday",
        "dayOfWeekDUTCH": "Donderdag",
        "dayOfWeekSCHEMA": "Thursday",
        "timeSlots": [
          {"opens": "10:00", "closes": "13:00"},
          {"opens": "14:00", "closes": "20:00"}
        ]
      },
      {
        "dayOfWeekFRENCH": "Vendredi",
        "dayOfWeekENGLISH": "Friday",
        "dayOfWeekDUTCH": "Vrijdag",
        "dayOfWeekSCHEMA": "Friday",
        "timeSlots": [
          {"opens": "10:00", "closes": "13:00"},
          {"opens": "14:00", "closes": "20:00"}
        ]
      },
      {
        "dayOfWeekFRENCH": "Samedi",
        "dayOfWeekENGLISH": "Saturday",
        "dayOfWeekDUTCH": "Zaterdag",
        "dayOfWeekSCHEMA": "Saturday",
        "timeSlots": [
          {"opens": "10:00", "closes": "13:00"},
          {"opens": "14:00", "closes": "18:00"}
        ]
      }
    ],
    "hours_details_note": "Veel tijdslots beschikbaar voor videoconsultatie.",
    "coordinates": null
  }
]